     2.11           OBSERVATION DATA    M (MIXED)           RINEX VERSION / TYPE
teqc  2019Feb25     BfG                 20190418 10:47:00UTCPGM / RUN BY / DATE
GWES                                                        MARKER NAME
99999M500                                                   MARKER NUMBER
M5_1                Federal Institute of Hydrology          OBSERVER / AGENCY
1700484             LEICA GR10          4.31/6.525          REC # / TYPE / VERS
10180021            LEIAR25.R3      LEIT                    ANT # / TYPE
  3939618.0985   456302.0205  4978525.8695                  APPROX POSITION XYZ
        0.0425        0.0000        0.0000                  ANTENNA: DELTA H/E/N
     1     1                                                WAVELENGTH FACT L1/2
    21    C1    L1    D1    S1    P2    L2    D2    S2    C2# / TYPES OF OBSERV
          C5    L5    D5    S5    C7    L7    D7    S7    C8# / TYPES OF OBSERV
          L8    D8    S8                                    # / TYPES OF OBSERV
    30.0000                                                 INTERVAL
    18                                                      LEAP SECONDS
  2019     1     1     0     0    0.0000000     GPS         TIME OF FIRST OBS
                                                            END OF HEADER
 19  1  1  0  0  0.0000000  0 23G05G16G20G21G26G27G29G31R02R03R04R09
                                R10R11R18R19R20R21E02E04E09E27E30
  24692640.810   129760728.864 8     -2467.231          46.050    24692634.156
 101112238.72245     -1922.516          37.100    24692635.018



  20852419.322   109580216.319 9      1588.567          50.350    20852411.891
  85387144.54348      1237.845          46.850



  23419999.944   123072925.042 8      3349.371          47.250    23419993.885
  95900983.48145      2609.900          37.850



  21036174.431   110545863.865 8      -491.843          48.900    21036167.191
  86139612.06748      -383.255          48.300



  20383304.118   107114985.799 9      -313.401          51.450    20383300.571
  83466211.99649      -244.208          49.400    20383300.953    20383299.201
  79988444.795 9      -234.021          52.350


  23046070.974   121107938.338 8      3040.451          48.300    23046066.714
  94369793.71047      2369.181          42.550    23046067.555    23046066.668
  90437726.396 9      2270.519          49.600


  23268278.859   122275635.088 9     -3080.450          49.750    23268272.902
  95279735.61446     -2400.351          40.250    23268273.649



  24296990.717   127681516.376 8     -3493.444          48.450    24296984.415
  99492064.63244     -2722.163          35.450    24296985.403



  23892843.695   127496798.681 8     -2598.142          46.950    23892842.819
  99164165.289 5     -2020.777          38.250    23892843.693



  22456762.646   120212821.403 8       593.365          47.100    22456759.868
  93498861.726 7       461.509          42.400    22456760.731



  23249501.848   124500014.665 7      3572.128          44.500    23249499.715
  96833348.284 6      2778.326          40.600    23249500.705



  20802216.192   111082663.567 9     -3479.465          50.200    20802214.359
  86397617.975 8     -2706.255          46.150    20802215.229



  19670102.284   104852728.325 9       242.375          50.150    19670103.917
  81552111.102 7       188.516          42.350    19670105.473



  22781866.467   121739398.109 8      3827.497          47.250    22781864.872
  94686172.567 6      2976.944          41.300    22781865.732



  24193022.873   129144000.551 7     -3811.963          44.300    24193023.411
 100445338.001 5     -2964.861          38.700    24193024.225



  20217080.214   108147777.284 8     -2373.410          45.050    20217077.227
  84114928.461 7     -1845.985          44.700    20217078.477



  19902549.662   106427922.111 8      1577.075          45.650    19902549.198
  82777264.989 8      1226.614          47.050    19902551.082



  23902884.177   127909176.775 7      3710.843          44.700    23902883.596
  99484895.922 6      2886.210          39.550    23902884.573



  26596341.638   139764712.221 9     -3140.259          50.500
                                                                  26596340.912
 104369747.512 8     -2344.953          47.450    26596338.196   107092426.782 9
     -2406.187          50.000    26596339.092   105731083.656 8     -2375.641
        45.000
  28188693.334   148132582.587 8      -102.363          47.600
                                                                  28188690.718
 110618480.490 7       -76.550          43.900    28188688.563   113504173.908 8
       -78.481          47.000    28188689.295   112061321.704 6       -77.563
        41.350
  26009785.356   136682346.72417      1981.457          43.150
                                                                  26009785.018
 102067983.06016      1479.928          39.500    26009782.793   104730614.23417
      1518.210          43.450    26009784.123   103399301.14515      1499.061
        36.950
  24879299.331   130741594.788 9      1705.555          52.100
                                                                  24879297.798
  97631707.868 9      1273.571          50.300    24879295.566   100178612.035 9
      1306.861          52.000    24879296.298    98905161.456 8      1290.195
        48.450
  22243770.243   116891798.794 9     -1168.478          52.350
                                                                  22243768.911
  87289327.960 9      -872.581          51.600    22243766.509    89566432.862 9
      -895.372          52.850    22243767.295    88427878.916 9      -884.027
        50.150
 19  1  1  0  0 30.0000000  0 23G05G16G20G21G26G27G29G31R02R03R04R09
                                R10R11R18R19R20R21E02E04E09E27E30
  24706767.003   129834961.999 7     -2481.500          44.100    24706760.382
 101170082.61345     -1933.639          37.100    24706761.244



  20843396.434   109532800.697 9      1572.811          50.000    20843388.990
  85350197.31148      1225.566          46.750



  23400898.172   122972544.614 8      3343.205          47.500    23400892.116
  95822764.97045      2605.095          38.500



  21039024.420   110560840.690 8      -506.210          48.950    21039017.197
  86151282.31248      -394.450          48.100



  20385145.503   107124662.313 9      -331.486          51.550    20385141.970
  83473752.12149      -258.301          49.050    20385142.351    20385140.596
  79995670.747 9      -247.511          52.300


  23028729.905   121016810.422 8      3034.700          47.600    23028725.630
  94298784.95447      2364.704          42.700    23028726.470    23028725.597
  90369676.348 9      2266.332          49.750


  23285877.055   122368114.097 9     -3084.500          50.100    23285871.124
  95351797.13046     -2403.508          41.200    23285871.872



  24316942.411   127786363.203 9     -3496.070          49.350    24316936.096
  99573763.45245     -2724.210          37.250    24316937.080



  23907505.033   127575034.715 8     -2617.451          46.300    23907504.133
  99225015.618 5     -2035.792          38.300    23907505.011



  22453511.693   120195418.734 8       567.196          48.250    22453508.925
  93485326.316 7       441.151          42.200    22453509.793



  23229522.222   124393024.900 8      3560.801          45.900    23229520.084
  96750134.083 6      2769.508          39.450    23229521.066



  20821813.636   111187312.749 9     -3496.874          49.950    20821811.814
  86479011.765 8     -2719.791          46.300    20821812.678



  19668818.210   104845883.480 9       214.247          49.400    19668819.858
  81546787.330 7       166.637          42.400    19668821.412



  22760413.178   121624758.211 8      3815.384          48.300    22760411.588
  94597008.178 6      2967.519          41.300    22760412.454



  24214442.728   129258341.255 7     -3810.768          42.950    24214443.260
 100534269.678 5     -2963.932          36.950    24214444.087



  20230424.636   108219160.962 8     -2385.191          45.300    20230421.662
  84170449.090 7     -1855.148          44.500    20230422.915



  19893748.900   106380860.563 8      1560.822          45.200    19893748.416
  82740661.601 8      1213.975          46.800    19893750.299



  23882093.609   127797922.332 8      3706.532          45.700    23882093.012
  99398364.714 5      2882.863          37.550    23882093.978



  26614281.957   139858989.354 9     -3144.661          50.500
                                                                  26614281.230
 104440149.286 8     -2348.221          47.350    26614278.512   107164665.112 9
     -2409.574          50.350    26614279.419   105802403.700 8     -2378.865
        45.450
  28189319.957   148135875.530 8      -116.683          48.050
                                                                  28189317.347
 110620939.505 7       -87.174          44.000    28189315.194   113506697.092 8
       -89.448          47.300    28189315.914   112063812.805 6       -88.417
        41.600
  25998502.409   136623049.174 7      1972.182          43.800
                                                                  25998501.368
 102023702.556 6      1472.542          40.100    25998499.312   104685178.555 7
      1510.888          44.100    25998500.076   103354443.069 5      1491.757
        38.000
  24869595.503   130690600.768 9      1694.267          51.750
                                                                  24869593.953
  97593627.921 9      1265.290          50.350    24869591.707   100139538.693 9
      1298.346          52.200    24869592.461    98866584.810 8      1281.809
        48.800
  22250480.579   116927061.789 9     -1182.061          52.300
                                                                  22250479.247
  87315660.701 9      -882.642          51.600    22250476.846    89593452.550 9
      -905.667          52.950    22250477.632    88454555.125 9      -894.108
        50.400
