     2.11           OBSERVATION DATA    G (GPS)             RINEX VERSION / TYPE
teqc  2019Feb25     NOAA/NOS/NGS/CORS   20220621 01:18:30UTCPGM / RUN BY / DATE
Linux 2.4.21-27.ELsmp|Opteron|gcc|Linux 64|=+               COMMENT
teqc  2019Feb25     NOAA/NOS/NGS/CORS   20220621 01:18:29UTCCOMMENT
teqc  2017Sep15     Mike Craymer        20220621 01:10:23UTCCOMMENT
Linux 2.6.32-573.12.1.x86_64|x86_64|gcc -static|Linux 64|=+ COMMENT
   0.050      (antenna height)                              COMMENT
 +47.96132621 (latitude)                                    COMMENT
 -84.90084425 (longitude)                                   COMMENT
0152.963      (elevation)                                   COMMENT
BIT 2 OF LLI FLAGS DATA COLLECTED UNDER A/S CONDITION       COMMENT
MCHN (COGO code)                                            COMMENT
This data is subject to the Open Government Licence -Canada COMMENT
http://open.canada.ca/en/open-government-licence-canada     COMMENT
 SNR is mapped to RINEX snr flag value [0-9]                COMMENT
  L1 & L2: min(max(int(snr_dBHz/6), 0), 9)                  COMMENT
MCHN                                                        MARKER NAME
40195M001                                                   MARKER NUMBER
MRC                 NRCan/GSD                               OBSERVER / AGENCY
5003K65325          TRIMBLE NETR8       48.01               REC # / TYPE / VERS
60220383            TRM41249.00     NONE                    ANT # / TYPE
   380317.2230 -4262080.1860  4714111.5380                  APPROX POSITION XYZ
        0.0500        0.0000        0.0000                  ANTENNA: DELTA H/E/N
     1     1                                                WAVELENGTH FACT L1/2
     7    L1    L2    L5    C1    P2    S1    S2            # / TYPES OF OBSERV
    30.0000                                                 INTERVAL
teqc.e windowed: start @ 2022 Jun 20 00:00:00.000           COMMENT
teqc.e windowed: delta = 86400.000 sec                      COMMENT
teqc.e edited: all SBAS satellites excluded                 COMMENT
teqc.e edited: all QZSS satellites excluded                 COMMENT
Forced Modulo Decimation to 30 seconds                      COMMENT
  2022     6    20     0     0    0.0000000     GPS         TIME OF FIRST OBS
                                                            END OF HEADER
 22  6 20  0  0  0.0000000  0  9G24G13G32G18G10G15G23G05G27
 115650341.910 7  90117224.78045                  22007514.406    22007527.602
        45.300          31.200
 121485532.310 7  94664187.91243                  23117930.766    23117942.027
        42.700          23.800
 132611757.147 6 103333891.55442                  25235174.500    25235191.625
        36.800          16.900
 107906797.746 8  84083289.41146                  20533971.617    20533981.648
        48.400          38.100
 118866580.047 7  92623378.18645                  22619550.664    22619563.391
        45.800          31.500
 108291206.747 8  84382841.34646                  20607110.906    20607120.586
        48.700          38.700
 108012589.416 7  84165721.63246                  20554093.359    20554103.742
        47.700          37.800
 130484418.069 6 101676251.72244                  24830355.516    24830368.359
        37.600          28.700
 121570017.135 6  94729939.92044                  23134002.266    23134014.934
        41.600          27.400
 22  6 20  0  0 30.0000000  0  9G24G13G32G18G10G15G23G05G27
 115569048.290 7  90053879.15145                  21992045.398    21992057.891
        44.600          31.700
 121586236.476 7  94742658.62243                  23137093.375    23137105.223
        42.200          23.300
 132506284.352 6 103251705.16542                  25215104.945    25215120.547
        37.200          16.300
 107953916.149 8  84120005.04446                  20542938.305    20542947.867
        48.800          37.900
 118790329.578 7  92563962.27145                  22605041.359    22605053.266
        46.600          32.800
 108349548.814 8  84428302.67646                  20618213.508    20618223.012
        48.700          39.100
 107978511.116 7  84139167.11746                  20547608.242    20547618.156
        47.400          38.100
 130582298.224 6 101752521.94944                  24848981.734    24848994.285
        39.700          29.600
 121566039.384 6  94726840.37944                  23133243.977    23133257.523
        40.900          24.300
 22  6 20  0  1  0.0000000  0  9G24G13G32G18G10G15G23G05G27
 115488183.962 7  89990868.05645                  21976655.883    21976668.961
        44.400          30.200
 121687153.897 6  94821295.50643                  23156298.500    23156308.297
        41.800          22.000
 132400887.466 6 103169577.89243                  25195049.969    25195064.281
        39.900          19.300
 108001556.821 8  84157127.62646                  20552003.797    20552013.945
        48.500          38.000
 118714226.720 7  92504661.37245                  22590559.188    22590571.504
        46.500          32.600
 108408334.941 8  84474110.02446                  20629400.188    20629409.691
        48.800          39.000
 107944752.194 7  84112861.47846                  20541184.250    20541194.281
        46.900          38.500
 130680226.397 6 101828829.62644                  24867618.102    24867628.895
        40.200          27.200
 121562672.798 6  94724217.09044                  23132603.445    23132616.406
        40.200          24.900
