     2.11           OBSERVATION DATA    M (MIXED)           RINEX VERSION / TYPE
teqc  2020Oct7      UNAVCO Archive Ops  20220531 00:59:59UTCPGM / RUN BY / DATE
Linux 2.4.21-27.ELsmp|Opteron|gcc|Linux 64|=+               COMMENT
BIT 2 OF LLI FLAGS DATA COLLECTED UNDER A/S CONDITION       COMMENT
SC02                                                        MARKER NAME
                                                            MARKER NUMBER
Freddy Blume        UNAVCO                                  OBSERVER / AGENCY
5303K57570          TRIMBLE NETR9       5.42                REC # / TYPE / VERS
0220369491          TRM59800.80     SCIT                    ANT # / TYPE
 -2304501.4548 -3547589.3986  4757288.6268                  APPROX POSITION XYZ
        0.0083        0.0000        0.0000                  ANTENNA: DELTA H/E/N
     1     1                                                WAVELENGTH FACT L1/2
    20    L1    L2    C1    P2    P1    S1    S2    C2    L5# / TYPES OF OBSERV
          C5    S5    L6    C6    S6    L7    C7    S7    L8# / TYPES OF OBSERV
          C8    S8                                          # / TYPES OF OBSERV
    15.0000                                                 INTERVAL
    18                                                      LEAP SECONDS
RINEX file created by UNAVCO GPS Archive.                   COMMENT
For more information contact archive-gps@unavco.org         COMMENT
Monument ID: 16185                                          COMMENT
UNAVCO 4-char name:   SC02                                  COMMENT
4-char name from Log or data file: SC02                     COMMENT
Monument location: 48.546195 -123.00761 -15.0315            COMMENT
Visit ID: 127336                                            COMMENT
                                                            COMMENT
SC02_PNGA_WA2001                                            COMMENT
                                                            COMMENT
doi:10.7283/T5R20ZG6                                        COMMENT
End of DB comments                                          COMMENT
input file: sc02202205300000a.tgd                           COMMENT
 SNR is mapped to RINEX snr flag value [0-9]                COMMENT
  L1 & L2: min(max(int(snr_dBHz/6), 0), 9)                  COMMENT
  2022     5    30     0     0    0.0000000     GPS         TIME OF FIRST OBS
                                                            END OF HEADER
 22  5 30  0  0  0.0000000  0 26G15G10G13R10R18R03R11G26G23R20R19G18
                                G29R05G16G27G05R04E33E07E26E31E13E08
                                E01E03
 112980071.780 7  88036483.174 7  21499374.031    21499380.898
        47.900          45.600    21499380.500


 121401847.483 7  94598845.030 7  23101973.820    23101985.387
        44.300          44.700    23101984.641    90657231.751 8  23101985.508
        48.900

 119924965.854 7  93448052.11544  22820949.172    22820957.527
        42.400          27.000


 127252834.532 5                  23872323.102                    23872321.840
        35.200


 130521502.925 6 101516548.923 6  24451040.867    24451048.805    24451039.164
        39.200          36.400    24451048.961


 123315582.730 7  95912157.455 6  23036374.867    23036379.758    23036373.559
        43.200          40.900    23036379.453


 121945907.703 6  94847040.133 5  22820537.398    22820539.754    22820535.813
        37.600          35.000    22820539.477


 122796381.527 6  95685497.319 6  23367373.313    23367385.816
        39.400          41.400    23367384.777    91698628.245 7  23367386.125
        45.300

 109362043.015 8  85217213.056 8  20810880.063    20810887.258
        49.700          50.700    20810886.656    81666568.088 9  20810892.469
        54.800

 105591851.810 6  82127031.222 8  19746205.617    19746210.059    19746204.496
        39.700          49.200    19746210.203


 111218214.337 6  86503015.010 7  20791042.727    20791047.313    20791041.707
        38.200          45.100    20791048.191


 106547540.564 8  83024138.563 8  20275313.883    20275321.250
        50.900          53.600    20275320.762    79564850.721 9  20275326.945
        58.300

 119232197.999 7  92908228.059 7  22689124.883    22689133.418
        44.600          42.300    22689132.434


 109325372.644 8  85030889.603 8  20451558.000    20451562.363    20451557.105
        50.300          48.200    20451562.383


 119448972.143 7  93077232.29944  22730398.500    22730405.293
        43.900          28.700


 121354404.723 7  94561763.703 7  23092942.898    23092952.961
        42.600          42.000    23092952.484    90621697.504 7  23092953.793
        45.500

 126646874.646 6  98686147.683 6  24100105.109    24100114.004
        39.400          39.000    24100113.711


 106038474.292 8  82474243.244 8  19801872.898    19801875.797    19801871.215
        51.400          50.500    19801875.813


 136361150.738 7                  25948655.859
        44.500                                   101828176.168 8  25948662.629
        48.000                                                   104484556.384 7
  25948660.000          47.300   103156361.876 8  25948660.941          51.400
 133073722.291 7                  25323068.602
        46.800                                    99373318.200 8  25323077.086
        49.000                                                   101965647.766 8
  25323074.766          49.200   100669481.085 8  25323075.836          52.200
 124539941.214 8                  23699146.297
        52.200                                    93000677.488 8  23699151.102
        53.800                                                    95426767.406 8
  23699149.070          53.300    94213721.051 9  23699149.813          57.000
 139778584.570 7                  26598979.750
        42.300                                   104380149.594 7  26598987.820
        43.200                                                   107103099.167 7
  26598986.047          44.500   105741622.489 7  26598986.547          47.300
 132064469.821 7                  25131023.539
        46.900                                    98619626.670 8  25131030.387
        48.700                                                   101192301.249 8
  25131027.742          48.100    99905963.567 8  25131029.145          52.200
 134034760.718 7                  25505960.133
        47.800                                   100090917.785 8  25505965.879
        48.200                                                   102701984.823 8
  25505963.992          48.500   101396422.911 8  25505964.609          51.500
 140857994.434 7                  26804389.797
        44.400                                   105186188.630 7  26804398.078
        44.000                                                   107930168.181 7
  26804395.184          44.100   106558177.512 7  26804396.277          47.400
 151030907.619 6                  28740222.773
        36.400
                                                                 115725019.134 7
  28740230.281          43.300
 22  5 30  0  0 15.0000000  0 26G15G10G13R10R18R03R11G26G23R20R19G18
                                G29R05G16G27G05R04E33E07E26E31E13E08
                                E01E03
 112964582.192 8  88024413.366 7  21496425.898    21496433.637
        48.400          46.000    21496432.793


 121355243.108 7  94562529.969 7  23093105.820    23093116.629
        44.500          44.700    23093115.883    90622429.819 8  23093117.027
        48.600

 119932247.300 7  93453725.93944  22822333.734    22822343.277
        42.000          25.700


 127306867.460 5                  23882459.078                    23882458.121
        34.600


 130575726.061 6 101558722.479 6  24461198.180    24461206.539    24461196.434
        37.800          37.700    24461207.551


 123374697.515 7  95958135.607 7  23047417.398    23047423.063    23047416.477
        43.200          42.000    23047423.406


 121961258.180 6  94858979.408 5  22823408.570    22823412.402    22823408.281
        37.800          35.500    22823412.387


 122832918.120 6  95713967.318 6  23374325.703    23374338.195
        38.800          41.300    23374337.363    91725912.013 7  23374338.668
        44.500

 109335237.641 8  85196325.769 8  20805779.164    20805786.430
        49.000          50.700    20805785.672    81646551.105 9  20805791.664
        55.000

 105568058.813 6  82108525.547 8  19741756.602    19741760.789    19741755.363
        39.800          49.400    19741761.523


 111253942.452 6  86530803.535 7  20797722.313    20797726.500    20797720.527
        38.600          45.800    20797726.926


 106555483.190 8  83030327.622 9  20276825.406    20276832.625
        51.800          54.000    20276832.289    79570781.903 9  20276838.258
        58.100

 119281693.420 7  92946795.848 7  22698543.766    22698551.957
        44.800          42.600    22698551.332


 109277791.593 8  84993882.152 7  20442657.586    20442661.352    20442656.586
        51.500          47.800    20442661.930


 119460692.669 7  93086365.17944  22732629.164    22732635.805
        44.700          28.300


 121306588.815 7  94524504.568 7  23083843.578    23083853.563
        42.600          42.100    23083853.363    90585990.806 7  23083854.477
        46.000

 126700447.874 6  98727893.036 6  24110299.117    24110308.508
        40.000          38.400    24110308.887


 106052639.174 8  82485260.363 8  19804517.852    19804520.855    19804515.910
        50.700          49.300    19804520.602


 136328597.387 7                  25942461.289
        44.800                                   101803866.867 7  25942467.922
        47.600                                                   104459612.916 7
  25942465.031          46.800   103131735.499 8  25942466.102          50.700
 133041044.709 7                  25316850.672
        47.300                                    99348916.132 8  25316858.527
        49.600                                                   101940609.107 8
  25316856.375          48.900   100644760.724 8  25316857.480          52.700
 124534788.266 8                  23698165.695
        52.000                                    92996829.508 8  23698170.379
        53.000                                                    95422819.053 8
  23698168.305          53.700    94209822.884 9  23698169.242          56.400
 139783444.253 6                  26599904.516
        40.700                                   104383778.558 7  26599912.238
        42.600                                                   107106822.830 7
  26599910.531          44.100   105745298.795 7  26599911.352          46.800
 132093355.498 7                  25136520.570
        46.800                                    98641197.122 8  25136527.102
        48.800                                                   101214434.404 8
  25136524.688          48.100    99927815.375 8  25136525.922          52.000
 134042426.929 8                  25507419.109
        48.300                                   100096642.566 7  25507424.336
        47.800                                                   102707858.943 8
  25507422.652          48.600   101402222.361 8  25507423.402          51.200
 140897246.024 7                  26811858.633
        44.200                                   105215499.827 7  26811867.430
        44.800                                                   107960244.037 7
  26811864.801          44.200   106587871.038 7  26811865.637          47.700
 151069100.416 5                  28747490.508
        35.400
                                                                 115754283.736 7
  28747498.027          42.200
 22  5 30  0  0 30.0000000  0 26G15G10G13R10R18R03R11G26G23R20R19G18
                                G29R05G16G27G05R04E33E07E26E31E13E08
                                E01E03
 112949250.846 7  88012466.883 7  21493509.055    21493516.070
        47.900          44.900    21493515.582


 121308697.887 7  94526260.998 7  23084249.320    23084259.395
        44.200          44.100    23084258.441    90587672.071 8  23084259.516
        49.200

 119939685.697 6  93459522.11944  22823750.539    22823758.438
        41.600          25.700


 127360958.157 6                  23892607.680                    23892606.281
        36.100


 130629975.229 5 101600916.212 6  24471359.320    24471369.520    24471359.438
        34.300          38.300    24471368.672


 123433886.862 7  96004171.755 7  23058475.336    23058480.344    23058473.195
        43.300          42.100    23058480.758


 121976793.452 6  94871062.353 5  22826315.469    22826319.289    22826315.359
        36.200          33.100    22826318.645


 122869537.977 6  95742502.212 6  23381294.922    23381306.414
        38.200          41.000    23381305.840    91753257.947 7  23381308.168
        45.200

 109308544.459 8  85175525.881 8  20800699.039    20800706.785
        48.600          50.800    20800706.168    81626617.897 9  20800712.172
        54.900

 105544364.196 6  82090096.409 8  19737324.086    19737329.961    19737323.527
        39.500          50.100    19737330.031


 111289765.666 6  86558665.994 7  20804419.586    20804423.414    20804417.539
        38.700          44.900    20804422.652


 106563514.181 8  83036585.544 8  20278353.906    20278361.082
        50.500          53.900    20278360.637    79576779.075 9  20278366.469
        58.200

 119331259.933 7  92985419.100 7  22707975.398    22707984.246
        44.700          42.400    22707983.297


 109230355.292 8  84956987.275 8  20433783.273    20433787.344    20433782.313
        50.900          48.100    20433787.613


 119472562.645 7  93095614.49244  22734887.523    22734894.359
        44.100          27.700


 121258838.892 6  94487296.873 7  23074756.984    23074766.910
        41.000          42.000    23074766.723    90550333.439 7  23074768.535
        46.700

 126754045.772 6  98769657.601 6  24120498.031    24120507.781
        40.300          38.700    24120507.949


 106067002.204 8  82496431.611 8  19807199.797    19807202.922    19807198.207
        50.900          49.200    19807202.523


 136296062.387 7                  25936270.469
        45.500                                   101779571.285 7  25936276.172
        47.600                                                   104434683.534 7
  25936273.820          46.700   103107123.017 8  25936274.938          50.600
 133008443.837 7                  25310646.750
        46.800                                    99324571.363 8  25310654.875
        49.200                                                   101915629.268 8
  25310652.727          49.300   100620098.419 8  25310653.773          52.800
 124529685.897 8                  23697194.961
        52.200                                    92993019.301 8  23697199.445
        53.300                                                    95418909.445 8
  23697197.328          53.800    94205962.981 9  23697198.297          56.700
 139788414.719 7                  26600850.789
        42.100                                   104387490.288 7  26600858.520
        43.600                                                   107110631.353 7
  26600856.430          43.500   105749058.922 7  26600857.055          46.600
 132122274.957 7                  25142023.430
        45.400                                    98662792.809 8  25142030.207
        49.000                                                   101236593.480 8
  25142028.063          48.500    99949692.748 8  25142029.148          51.600
 134050202.227 8                  25508898.758
        48.100                                   100102448.802 7  25508904.031
        47.800                                                   102713816.636 8
  25508902.172          48.400   101408104.329 8  25508903.023          51.400
 140936546.013 7                  26819336.992
        44.100                                   105244847.175 7  26819345.738
        44.600                                                   107990356.945 7
  26819343.367          44.000   106617601.170 7  26819344.246          47.700
 151107345.599 5                  28754768.414
        34.300
                                                                 115783588.573 6
  28754775.777          40.900
 22  5 30  0  0 45.0000000  0 26G15G10G13R10R18R03R11G26G23R20R19G18
                                G29R05G16G27G05R04E33E07E26E31E13E08
                                E01E03
 112934078.103 7  88000643.964 7  21490620.641    21490628.879
        47.900          46.000    21490628.215


 121262212.060 7  94490038.337 7  23075402.523    23075413.410
        45.300          44.400    23075412.836    90552958.670 8  23075413.453
        49.300

 119947280.828 7  93465440.40844  22825195.852    22825203.188
        42.300          24.100


 127415105.800 5                  23902766.336                    23902763.840
        34.300


 130684250.624 5 101643130.287 6  24481526.359    24481536.883    24481527.617
        31.900          38.200    24481536.570


 123493150.178 7  96050265.437 6  23069545.445    23069550.816    23069544.105
        43.200          41.400    23069551.320


 121992513.141 6  94883288.758 5  22829258.523    22829261.945    22829256.992
        36.500          35.000    22829262.547


 122906240.754 6  95771101.763 6  23388279.617    23388290.398
        39.700          41.600    23388290.820    91780665.848 7  23388292.141
        45.500

 109281963.589 8  85154813.535 8  20795641.320    20795648.484
        49.700          50.200    20795647.867    81606768.562 9  20795653.980
        55.200

 105520767.713 6  82071743.608 8  19732911.438    19732916.902    19732911.195
        39.400          49.300    19732917.402


 111325683.804 6  86586602.300 7  20811133.898    20811137.750    20811132.211
        38.600          44.700    20811137.352


 106571633.613 8  83042912.366 8  20279899.141    20279906.160
        51.800          53.500    20279905.508    79582842.276 9  20279911.500
        58.200

 119380897.521 7  93024097.702 7  22717420.961    22717430.152
        44.500          42.800    22717429.617


 109183064.228 8  84920205.352 7  20424936.531    20424940.719    20424935.520
        51.200          47.600    20424940.598


 119484582.007 7  93104980.24944  22737174.258    22737181.742
        44.300          27.600


 121211155.291 7  94450140.865 7  23065682.695    23065693.230
        43.000          42.600    23065693.234    90514725.615 7  23065694.188
        47.000

 126807668.266 6  98811441.368 6  24130702.172    24130711.398
        41.000          38.400    24130711.777


 106081563.280 8  82507756.891 8  19809919.336    19809922.059    19809917.547
        51.600          50.000    19809922.160


 136263545.860 7                  25930082.383
        45.800                                   101755289.475 7  25930088.723
        46.800                                                   104409768.273 7
  25930086.281          47.600   103082524.482 8  25930087.102          50.200
 132975920.015 7                  25304457.789
        47.400                                    99300284.096 8  25304465.734
        49.500                                                   101890708.419 8
  25304463.434          49.800   100595494.363 8  25304464.656          52.600
 124524634.185 8                  23696233.492
        52.100                                    92989246.915 8  23696238.164
        53.400                                                    95415038.651 8
  23696236.172          53.400    94202141.387 9  23696237.004          56.900
 139793495.984 7                  26601817.695
        42.700                                   104391284.732 7  26601825.398
        42.600                                                   107114524.790 7
  26601823.281          43.000   105752902.866 7  26601824.031          46.400
 132151228.264 7                  25147533.391
        46.800                                    98684413.756 8  25147539.961
        48.900                                                   101258778.447 8
  25147537.672          48.900    99971595.710 8  25147538.734          52.000
 134058086.575 8                  25510399.234
        48.000                                   100108336.481 8  25510404.277
        48.000                                                   102719857.906 8
  25510401.949          48.700   101414068.798 8  25510403.332          51.700
 140975894.166 7                  26826824.453
        44.000                                   105274230.489 7  26826833.656
        45.100                                                   108020506.803 7
  26826831.102          44.400   106647367.756 8  26826832.020          48.200
 151145643.19415                  28762056.070
        34.200
                                                                 115812933.543 6
  28762063.707          41.300
 22  5 30  0  1  0.0000000  0 26G15G10G13R10R18R03R11G26G23R20R19G18
                                G29R05G16G27G05R04E33E07E26E31E13E08
                                E01E03
 112919063.917 8  87988944.599 7  21487763.742    21487771.637
        48.200          45.000    21487771.395


 121215785.626 7  94453861.939 7  23066567.555    23066578.641
        44.100          44.600    23066578.434    90518289.626 8  23066579.246
        49.400

 119955032.615 7  93471480.76443  22826670.797    22826678.355
        43.200          23.900


 127469310.015 5                  23912934.117                    23912931.793
        34.800


 130738551.72715 101685364.320 6  24491699.500    24491709.664    24491699.059
        32.100          40.800    24491709.637


 123552486.988 7  96096416.262 6  23080631.039    23080635.613    23080628.992
        42.700          41.700    23080635.770


 122008417.190 6  94895658.570 5  22832233.891    22832237.715    22832233.574
        36.700          33.400    22832236.758


 122943025.994 6  95799765.521 6  23395279.227    23395291.180
        39.600          41.600    23395290.297    91808135.312 7  23395292.332
        45.100

 109255494.969 8  85134188.659 8  20790604.172    20790611.836
        49.200          50.900    20790611.395    81587003.049 9  20790616.875
        54.900

 105497269.757 6  82053467.412 8  19728517.852    19728523.129    19728516.648
        39.700          49.800    19728523.938


 111361696.634 6  86614612.267 7  20817865.820    20817870.090    20817864.027
        38.700          45.100    20817869.438


 106579841.273 8  83049307.937 8  20281460.961    20281467.969
        51.300          53.700    20281467.559    79588971.365 9  20281473.398
        58.300

 119430605.888 7  93062831.474 7  22726880.906    22726889.129
        45.000          42.600    22726888.961


 109135918.602 8  84883536.579 8  20416116.578    20416120.977    20416115.723
        50.900          48.200    20416120.832


 119496750.473 7  93114462.15344  22739490.789    22739497.418
        45.200          28.700


 121163538.258 7  94413036.708 7  23056621.859    23056632.039
        42.000          42.600    23056631.434    90479167.478 7  23056632.254
        46.000

 126861314.994 6  98853243.988 6  24140912.547    24140920.211
        41.000          37.200    24140919.383


 106096322.084 8  82519235.969 8  19812675.609    19812678.016    19812673.879
        51.200          49.600    19812678.078


 136231047.675 7                  25923898.594
        45.900                                   101731021.383 7  25923904.680
        47.800                                                   104384867.096 7
  25923901.816          46.700   103057939.846 8  25923902.902          50.500
 132943473.197 7                  25298283.930
        47.900                                    99276054.351 8  25298291.410
        48.500                                                   101865846.579 8
  25298289.320          49.800   100570948.566 8  25298290.211          52.500
 124519632.988 8                  23695281.695
        51.200                                    92985512.257 8  23695286.508
        53.200                                                    95411206.562 8
  23695284.332          53.700    94198358.013 9  23695285.328          56.700
 139798687.793 6                  26602805.484
        41.800                                   104395161.758 7  26602812.801
        42.100                                                   107118502.979 7
  26602811.250          43.100   105756830.477 7  26602812.176          46.200
 132180215.211 7                  25153049.094
        46.500                                    98706059.834 8  25153056.125
        48.700                                                   101280989.204 8
  25153053.957          48.900    99993524.130 8  25153054.828          52.500
 134066079.762 8                  25511919.734
        48.000                                   100114305.403 8  25511925.375
        48.600                                                   102725982.540 8
  25511923.289          48.700   101420115.577 8  25511924.320          51.900
 141015290.084 7                  26834321.781
        44.600                                   105303649.494 7  26834330.672
        45.100                                                   108050693.250 7
  26834328.348          44.600   106677170.475 8  26834328.828          48.200
 151183992.661 5                  28769353.688
        35.300
                                                                 115842318.218 6
  28769361.547          41.900
 22  5 30  0  1 15.0000000  0 26G15G10G13R10R18R03R11G26G23R20R19G18
                                G29R05G16G27G05R04E33E07E26E31E13E08
                                E01E03
 112904208.374 8  87977368.888 7  21484937.211    21484944.590
        48.600          44.400    21484944.090


 121169418.900 7  94417732.043 7  23057744.492    23057755.238
        43.800          44.500    23057754.617    90483665.172 8  23057755.855
        49.300

 119962941.002 7  93477643.14144  22828176.164    22828183.332
        43.500          24.000


 127523569.789 5                  23923113.156                    23923111.566
        35.400


 130792878.622 5 101727618.465 6  24501879.055    24501886.320    24501877.324
        33.600          38.900    24501886.828


 123611896.852 7  96142623.888 7  23091729.398    23091734.043    23091727.738
        43.400          42.500    23091733.730


 122024505.262 6  94908171.463 5  22835245.055    22835248.555    22835244.539
        36.600          34.300    22835247.254


 122979893.456 6  95828493.415 6  23402294.023    23402306.805
        37.800          41.300    23402306.754    91835666.160 7  23402307.645
        44.600

 109229138.829 8  85113651.421 8  20785588.984    20785596.387
        50.300          50.900    20785595.906    81567321.540 9  20785601.496
        54.900

 105473870.591 6  82035268.088 8  19724142.805    19724147.316    19724141.391
        40.100          50.000    19724147.668


 111397804.238 6  86642695.953 7  20824615.797    20824619.871    20824614.824
        39.000          45.700    20824619.590


 106588137.289 8  83055772.366 8  20283039.203    20283046.633
        51.500          53.700    20283046.066    79595166.437 9  20283051.949
        58.000

 119480384.810 7  93101620.205 7  22736353.570    22736362.012
        44.200          42.600    22736361.242


 109088918.719 8  84846981.133 8  20407324.234    20407328.656    20407323.660
        51.400          48.300    20407329.059


 119509068.059 7  93124060.24744  22741834.672    22741841.293
        44.500          28.900


 121115988.174 6  94375984.729 7  23047573.047    23047583.574
        41.000          43.100    23047583.418    90443659.323 7  23047583.598
        45.500

 126914986.039 6  98895065.495 6  24151126.203    24151133.449
        41.400          37.300    24151132.938


 106111278.421 8  82530868.681 8  19815468.242    19815471.188    19815466.441
        51.200          50.200    19815471.086


 136198568.053 7                  25917717.828
        45.900                                   101706767.128 7  25917723.855
        47.600                                                   104359980.126 7
  25917721.285          46.600   103033369.234 8  25917722.188          50.300
 132911103.720 7                  25292124.063
        47.300                                    99251882.360 8  25292131.527
        49.000                                                   101841044.024 8
  25292129.465          49.300   100546461.294 8  25292130.453          52.500
 124514682.478 8                  23694339.719
        52.100                                    92981815.444 8  23694344.566
        53.800                                                    95407413.311 8
  23694342.242          53.300    94194612.985 9  23694343.281          56.900
 139803990.310 6                  26603814.172
        41.600                                   104399121.427 7  26603822.148
        42.500                                                   107122565.948 7
  26603820.301          42.500   105760841.796 7  26603821.141          45.800
 132209235.918 7                  25158571.273
        46.500                                    98727731.139 8  25158578.500
        48.500                                                   101303225.846 8
  25158576.305          48.700   100015478.097 8  25158577.313          51.500
 134074181.814 8                  25513461.695
        48.200                                   100120355.642 8  25513467.641
        48.200                                                   102732190.609 8
  25513465.215          48.000   101426244.734 8  25513466.098          51.200
 141054733.645 7                  26841827.445
        44.800                                   105333104.058 7  26841836.508
        45.000                                                   108080916.215 7
  26841834.313          44.700   106707009.239 8  26841834.707          48.500
 151222393.962 5                  28776662.141
        35.600
                                                                 115871742.656 6
  28776668.824          41.700
 22  5 30  0  1 30.0000000  0 26G15G10G13R10R18R03R11G26G23R20R19G18
                                G29R05G16G27G05R04E33E07E26E31E13E08
                                E01E03
 112889511.680 7  87965916.921 7  21482140.070    21482148.020
        47.900          45.400    21482147.797


 121123112.051 7  94381648.848 7  23048932.547    23048943.254
        43.400          44.100    23048942.582    90449085.435 8  23048943.988
        49.400

 119971006.179 7  93483927.69944  22829710.875    22829718.320
        43.200          24.000


 127577885.024 5                  23933301.133                    23933300.855
        34.800


 130847231.106 6 101769892.539 6  24512060.125    24512068.293    24512059.391
        38.000          40.500    24512068.289


 123671379.400 7  96188888.060 6  23102840.867    23102845.680    23102839.871
        43.000          41.700    23102845.297


 122040777.388 5  94920827.542 5  22838290.297    22838293.922    22838289.160
        35.500          35.300    22838292.309


 123016842.789 6  95857285.072 6  23409325.844    23409338.383
        37.800          41.100    23409337.242    91863258.158 7  23409338.336
        44.700

 109202895.264 8  85093201.902 8  20780594.656    20780602.289
        49.300          50.800    20780601.891    81547724.092 9  20780607.516
        55.600

 105450570.622 6  82017145.905 8  19719786.117    19719789.832    19719783.895
        39.700          49.600    19719790.137


 111434006.565 6  86670853.319 7  20831383.227    20831387.398    20831381.641
        39.000          45.000    20831387.332


 106596521.672 8  83062305.643 8  20284634.648    20284641.926
        52.000          53.400    20284641.633    79601427.499 9  20284647.508
        58.100

 119530234.071 7  93140463.755 7  22745839.805    22745847.969
        45.700          42.400    22745847.891


 109042065.433 8  84810539.704 8  20398559.055    20398563.879    20398558.480
        50.900          48.100    20398564.074


 119521534.626 7  93133774.45444  22744207.633    22744213.828
        45.300          29.800


 121068505.401 6  94338985.196 7  23038537.641    23038547.797
        40.800          42.500    23038547.660    90408201.453 7  23038548.055
        45.100

 126968680.772 6  98936905.494 6  24161342.555    24161352.148
        41.100          39.000    24161351.727


 106126432.163 8  82542654.923 8  19818297.258    19818300.863    19818296.148
        51.000          49.700    19818300.941


 136166107.039 7                  25911540.789
        45.100                                   101682526.783 7  25911547.133
        47.500                                                   104335107.435 7
  25911544.250          47.200   103008812.709 8  25911545.148          50.300
 132878811.834 8                  25285979.070
        48.000                                    99227768.317 8  25285986.594
        49.100                                                   101816300.907 8
  25285984.656          49.400   100522032.712 8  25285985.492          52.300
 124509782.774 8                  23693407.555
        51.500                                    92978156.579 8  23693412.375
        53.300                                                    95403658.999 8
  23693409.891          53.800    94190906.397 9  23693410.867          56.300
 139809403.463 6                  26604844.391
        41.600                                   104403163.723 7  26604852.180
        42.300                                                   107126713.703 7
  26604850.297          43.700   105764936.822 7  26604851.363          46.400
 132238290.406 7                  25164100.758
        46.100                                    98749427.660 8  25164107.453
        48.200                                                   101325488.371 8
  25164105.469          49.000   100037457.614 8  25164106.184          51.900
 134082392.741 7                  25515023.969
        47.200                                   100126487.181 8  25515029.938
        48.500                                                   102738482.103 8
  25515027.563          48.500   101432456.240 8  25515028.594          51.800
 141094224.620 7                  26849342.039
        44.600                                   105362594.032 7  26849351.008
        45.000                                                   108111175.479 7
  26849349.285          44.300   106736883.864 8  26849349.648          48.200
 151260846.908 6                  28783979.227
        37.200
                                                                 115901206.589 7
  28783986.336          42.100
