     2.11           OBSERVATION DATA    M (MIXED)           RINEX VERSION / TYPE
INITIAL_RINEX_VERSION: 3.05                                 COMMENT             
GR50 V4.52          KADASTER            20220619 235942 UTC PGM / RUN BY / DATE 
gfzrnx-1.16-8177    FILE CONVERSION     20220827 091322 UTC COMMENT             
VLIS                                                        MARKER NAME         
13538M001                                                   MARKER NUMBER       
AGRS                KADASTER                                OBSERVER / AGENCY   
1830411             LEICA GR50          4.52/7.711          REC # / TYPE / VERS 
726201              LEIAR25.R4      LEIT                    ANT # / TYPE        
        0.0000        0.0000        0.0000                  ANTENNA: DELTA H/E/N
  3975805.2237   249950.0825  4964446.0875                  APPROX POSITION XYZ 
                                                            COMMENT             
*********************************************************** COMMENT             
*                 WARNING - FORMAT CONVERSION             * COMMENT             
* ------------------------------------------------------- * COMMENT             
*  The data values: observation, loss of lock (LLI) and   * COMMENT             
*  signal strength (SSI) indicators are left as they are. * COMMENT             
*    The LLI meaning differs between versions 2 and 3     * COMMENT             
*    and the Interpretation of bit 1 and 2 has to be      * COMMENT             
*                   used with caution !!!                 * COMMENT             
*********************************************************** COMMENT             
                                                            COMMENT             
RINEX 3 -> 2 TYPE CONVERSION DETAILS:                       COMMENT             
-------------------------------------                       COMMENT             
   C C2I -> C2                                              COMMENT             
   C C5P -> C5                                              COMMENT             
   C C6I -> C6                                              COMMENT             
   C C7I -> C7                                              COMMENT             
   C D2I -> D2                                              COMMENT             
   C D5P -> D5                                              COMMENT             
   C D6I -> D6                                              COMMENT             
   C D7I -> D7                                              COMMENT             
   C L2I -> L2                                              COMMENT             
   C L5P -> L5                                              COMMENT             
   C L6I -> L6                                              COMMENT             
   C L7I -> L7                                              COMMENT             
   C S2I -> S2                                              COMMENT             
   C S5P -> S5                                              COMMENT             
   C S6I -> S6                                              COMMENT             
   C S7I -> S7                                              COMMENT             
-------------------------------------                       COMMENT             
   E C1C -> C1                                              COMMENT             
   E C5Q -> C5                                              COMMENT             
   E C6C -> C6                                              COMMENT             
   E C7Q -> C7                                              COMMENT             
   E C8Q -> C8                                              COMMENT             
   E D1C -> D1                                              COMMENT             
   E D5Q -> D5                                              COMMENT             
   E D6C -> D6                                              COMMENT             
   E D7Q -> D7                                              COMMENT             
   E D8Q -> D8                                              COMMENT             
   E L1C -> L1                                              COMMENT             
   E L5Q -> L5                                              COMMENT             
   E L6C -> L6                                              COMMENT             
   E L7Q -> L7                                              COMMENT             
   E L8Q -> L8                                              COMMENT             
   E S1C -> S1                                              COMMENT             
   E S5Q -> S5                                              COMMENT             
   E S6C -> S6                                              COMMENT             
   E S7Q -> S7                                              COMMENT             
   E S8Q -> S8                                              COMMENT             
-------------------------------------                       COMMENT             
   G C1C -> C1                                              COMMENT             
   G C2S -> C2                                              COMMENT             
   G C2W -> P2                                              COMMENT             
   G C5Q -> C5                                              COMMENT             
   G D1C -> D1                                              COMMENT             
   G D2W -> D2                                              COMMENT             
   G D5Q -> D5                                              COMMENT             
   G L1C -> L1                                              COMMENT             
   G L2W -> L2                                              COMMENT             
   G L5Q -> L5                                              COMMENT             
   G S1C -> S1                                              COMMENT             
   G S2W -> S2                                              COMMENT             
   G S5Q -> S5                                              COMMENT             
-------------------------------------                       COMMENT             
   R C1C -> C1                                              COMMENT             
   R C2C -> C2                                              COMMENT             
   R C2P -> P2                                              COMMENT             
   R C3Q -> C3                                              COMMENT             
   R D1C -> D1                                              COMMENT             
   R D2P -> D2                                              COMMENT             
   R D3Q -> D3                                              COMMENT             
   R L1C -> L1                                              COMMENT             
   R L2P -> L2                                              COMMENT             
   R L3Q -> L3                                              COMMENT             
   R S1C -> S1                                              COMMENT             
   R S2P -> S2                                              COMMENT             
   R S3Q -> S3                                              COMMENT             
-------------------------------------                       COMMENT             
                                                            COMMENT             
    29    C1    C2    C3    C5    C6    C7    C8    D1    D2# / TYPES OF OBSERV 
          D3    D5    D6    D7    D8    L1    L2    L3    L5# / TYPES OF OBSERV 
          L6    L7    L8    P2    S1    S2    S3    S5    S6# / TYPES OF OBSERV 
          S7    S8                                          # / TYPES OF OBSERV 
INITIAL_RINEX_VERSION: 3.04                                 COMMENT             
SNR is mapped to RINEX snr flag value [1-9]                 COMMENT             
LX:     < 12dBHz -> 1; 12-17dBHz -> 2; 18-23dBHz -> 3       COMMENT             
       24-29dBHz -> 4; 30-35dBHz -> 5; 36-41dBHz -> 6       COMMENT             
       42-47dBHz -> 7; 48-53dBHz -> 8; >= 54dBHz -> 9       COMMENT             
     0                                                      RCV CLOCK OFFS APPL 
    18    18  1929     7                                    LEAP SECONDS        
GFZRNX.NUM_EPOCHS: 5760                                     COMMENT
   122                                                      # OF SATELLITES     
   C05        5759              5577  5758              5759PRN / # OF OBS      
                    5577  5758              5759            PRN / # OF OBS      
        5572  5757                    5759              5577PRN / # OF OBS      
        5758                                                PRN / # OF OBS      
   C06        2018              2018  2018              2018PRN / # OF OBS      
                    2018  2018              2018            PRN / # OF OBS      
        2017  2017                    2018              2018PRN / # OF OBS      
        2018                                                PRN / # OF OBS      
   C07        1950              1951  1951              1950PRN / # OF OBS      
                    1951  1951              1947            PRN / # OF OBS      
        1948  1949                    1950              1951PRN / # OF OBS      
        1951                                                PRN / # OF OBS      
   C08        2022              2022  2023              2022PRN / # OF OBS      
                    2022  2023              2018            PRN / # OF OBS      
        2020  2022                    2022              2022PRN / # OF OBS      
        2023                                                PRN / # OF OBS      
   C09        2297              2296  2297              2297PRN / # OF OBS      
                    2296  2297              2290            PRN / # OF OBS      
        2290  2295                    2297              2296PRN / # OF OBS      
        2297                                                PRN / # OF OBS      
   C10        2330              2321  2338              2330PRN / # OF OBS      
                    2321  2338              2319            PRN / # OF OBS      
        2307  2325                    2330              2321PRN / # OF OBS      
        2338                                                PRN / # OF OBS      
   C11        2026              2027  2030              2026PRN / # OF OBS      
                    2027  2030              2023            PRN / # OF OBS      
        2022  2024                    2026              2027PRN / # OF OBS      
        2030                                                PRN / # OF OBS      
   C12        2216              2216  2217              2216PRN / # OF OBS      
                    2216  2217              2212            PRN / # OF OBS      
        2211  2213                    2216              2216PRN / # OF OBS      
        2217                                                PRN / # OF OBS      
   C13        2280              2281  2280              2280PRN / # OF OBS      
                    2281  2280              2280            PRN / # OF OBS      
        2278  2277                    2280              2281PRN / # OF OBS      
        2280                                                PRN / # OF OBS      
   C14        2500              2507  2509              2500PRN / # OF OBS      
                    2507  2509              2494            PRN / # OF OBS      
        2500  2504                    2500              2507PRN / # OF OBS      
        2509                                                PRN / # OF OBS      
   C16        1864              1863  1864              1864PRN / # OF OBS      
                    1863  1864              1864            PRN / # OF OBS      
        1859  1863                    1864              1863PRN / # OF OBS      
        1864                                                PRN / # OF OBS      
   C19        1891        1891  1889                    1891PRN / # OF OBS      
              1891  1889                    1888        1891PRN / # OF OBS      
        1887                          1891        1891  1889PRN / # OF OBS      
                                                            PRN / # OF OBS      
   C20        1744        1742  1744                    1744PRN / # OF OBS      
              1742  1744                    1742        1742PRN / # OF OBS      
        1740                          1744        1742  1744PRN / # OF OBS      
                                                            PRN / # OF OBS      
   C21        2498        2495  2497                    2498PRN / # OF OBS      
              2495  2497                    2491        2495PRN / # OF OBS      
        2491                          2498        2495  2497PRN / # OF OBS      
                                                            PRN / # OF OBS      
   C22        1996        1994  1996                    1996PRN / # OF OBS      
              1994  1996                    1990        1994PRN / # OF OBS      
        1992                          1996        1994  1996PRN / # OF OBS      
                                                            PRN / # OF OBS      
   C23        2405        2407  2408                    2405PRN / # OF OBS      
              2407  2408                    2403        2407PRN / # OF OBS      
        2403                          2405        2407  2408PRN / # OF OBS      
                                                            PRN / # OF OBS      
   C24        2563        2563  2562                    2563PRN / # OF OBS      
              2563  2562                    2559        2563PRN / # OF OBS      
        2558                          2563        2563  2562PRN / # OF OBS      
                                                            PRN / # OF OBS      
   C25        2643        2639  2640                    2643PRN / # OF OBS      
              2639  2640                    2642        2639PRN / # OF OBS      
        2633                          2643        2639  2640PRN / # OF OBS      
                                                            PRN / # OF OBS      
   C26        2458        2457  2456                    2458PRN / # OF OBS      
              2457  2456                    2455        2457PRN / # OF OBS      
        2454                          2458        2457  2456PRN / # OF OBS      
                                                            PRN / # OF OBS      
   C27        2286        2282  2285                    2286PRN / # OF OBS      
              2282  2285                    2286        2282PRN / # OF OBS      
        2283                          2286        2282  2285PRN / # OF OBS      
                                                            PRN / # OF OBS      
   C28        2169        2167  2164                    2169PRN / # OF OBS      
              2167  2164                    2166        2167PRN / # OF OBS      
        2158                          2169        2167  2164PRN / # OF OBS      
                                                            PRN / # OF OBS      
   C29        2289        2289  2287                    2289PRN / # OF OBS      
              2289  2287                    2285        2289PRN / # OF OBS      
        2278                          2289        2289  2287PRN / # OF OBS      
                                                            PRN / # OF OBS      
   C30        2336        2330  2332                    2336PRN / # OF OBS      
              2330  2332                    2330        2330PRN / # OF OBS      
        2325                          2336        2330  2332PRN / # OF OBS      
                                                            PRN / # OF OBS      
   C32        2109        2109  2109                    2109PRN / # OF OBS      
              2109  2109                    2093        2109PRN / # OF OBS      
        2104                          2109        2109  2109PRN / # OF OBS      
                                                            PRN / # OF OBS      
   C33        2485        2231  2482                    2485PRN / # OF OBS      
              2231  2482                    2485        2231PRN / # OF OBS      
        2481                          2485        2231  2482PRN / # OF OBS      
                                                            PRN / # OF OBS      
   C34        2089        2083  2089                    2089PRN / # OF OBS      
              2083  2089                    2088        2083PRN / # OF OBS      
        2084                          2089        2083  2089PRN / # OF OBS      
                                                            PRN / # OF OBS      
   C35        2251        2249  2251                    2251PRN / # OF OBS      
              2249  2251                    2250        2249PRN / # OF OBS      
        2249                          2251        2249  2251PRN / # OF OBS      
                                                            PRN / # OF OBS      
   C36        1600        1596  1597                    1600PRN / # OF OBS      
              1596  1597                    1593        1596PRN / # OF OBS      
        1594                          1600        1596  1597PRN / # OF OBS      
                                                            PRN / # OF OBS      
   C37        1880        1880  1880                    1880PRN / # OF OBS      
              1880  1880                    1876        1880PRN / # OF OBS      
        1878                          1880        1880  1880PRN / # OF OBS      
                                                            PRN / # OF OBS      
   C38        1732        1731  1732                    1732PRN / # OF OBS      
              1731  1732                    1731        1731PRN / # OF OBS      
        1730                          1732        1731  1732PRN / # OF OBS      
                                                            PRN / # OF OBS      
   C39        1729        1728  1729                    1729PRN / # OF OBS      
              1728  1729                    1729        1728PRN / # OF OBS      
        1728                          1729        1728  1729PRN / # OF OBS      
                                                            PRN / # OF OBS      
   C40        1753        1752  1753                    1753PRN / # OF OBS      
              1752  1753                    1751        1752PRN / # OF OBS      
        1750                          1753        1752  1753PRN / # OF OBS      
                                                            PRN / # OF OBS      
   C41        2343        2329  2334                    2343PRN / # OF OBS      
              2329  2334                    2327        2329PRN / # OF OBS      
        2322                          2343        2329  2334PRN / # OF OBS      
                                                            PRN / # OF OBS      
   C42        2595        2591  2599                    2595PRN / # OF OBS      
              2591  2599                    2589        2591PRN / # OF OBS      
        2593                          2595        2591  2599PRN / # OF OBS      
                                                            PRN / # OF OBS      
   C43        1998        1984  1990                    1998PRN / # OF OBS      
              1984  1990                    1990        1984PRN / # OF OBS      
        1978                          1998        1984  1990PRN / # OF OBS      
                                                            PRN / # OF OBS      
   C44        2183        2176  2182                    2183PRN / # OF OBS      
              2176  2182                    2173        2176PRN / # OF OBS      
        2167                          2183        2176  2182PRN / # OF OBS      
                                                            PRN / # OF OBS      
   C45        2186        2181  2179                    2186PRN / # OF OBS      
              2181  2179                    2181        2181PRN / # OF OBS      
        2171                          2186        2181  2179PRN / # OF OBS      
                                                            PRN / # OF OBS      
   C46        1741        1739  1741                    1741PRN / # OF OBS      
              1739  1741                    1737        1739PRN / # OF OBS      
        1738                          1741        1739  1741PRN / # OF OBS      
                                                            PRN / # OF OBS      
   C56        2312              2308                    2312PRN / # OF OBS      
                    2308                    2309            PRN / # OF OBS      
        2302                          2312              2308PRN / # OF OBS      
                                                            PRN / # OF OBS      
   C57        2220                                      2220PRN / # OF OBS      
                                            2219            PRN / # OF OBS      
                                      2220                  PRN / # OF OBS      
                                                            PRN / # OF OBS      
   C58        2029                                      2029PRN / # OF OBS      
                                            2029            PRN / # OF OBS      
                                      2029                  PRN / # OF OBS      
                                                            PRN / # OF OBS      
   C60        2508               995                    2508PRN / # OF OBS      
                     995                    2453            PRN / # OF OBS      
         973                          2508               995PRN / # OF OBS      
                                                            PRN / # OF OBS      
   E01  1291              1295  1293  1295  1297  1291      PRN / # OF OBS      
              1295  1293  1295  1297  1291              1295PRN / # OF OBS      
        1293  1295  1297        1291              1295  1293PRN / # OF OBS      
        1295  1297                                          PRN / # OF OBS      
   E02  2818              2817  2817  2817  2817  2818      PRN / # OF OBS      
              2817  2817  2817  2817  2818              2817PRN / # OF OBS      
        2817  2817  2817        2818              2817  2817PRN / # OF OBS      
        2817  2817                                          PRN / # OF OBS      
   E03  2855              2855  2855  2855  2855  2855      PRN / # OF OBS      
              2855  2855  2855  2855  2855              2855PRN / # OF OBS      
        2855  2855  2855        2855              2855  2855PRN / # OF OBS      
        2855  2855                                          PRN / # OF OBS      
   E04   958               958   958   958   958   958      PRN / # OF OBS      
               958   958   958   958   958               958PRN / # OF OBS      
         958   958   958         958               958   958PRN / # OF OBS      
         958   958                                          PRN / # OF OBS      
   E05  2184              2186  2187  2188  2187  2184      PRN / # OF OBS      
              2186  2187  2188  2187  2184              2186PRN / # OF OBS      
        2187  2188  2187        2184              2186  2187PRN / # OF OBS      
        2188  2187                                          PRN / # OF OBS      
   E07  2726              2731  2732  2731  2731  2726      PRN / # OF OBS      
              2731  2732  2731  2731  2726              2731PRN / # OF OBS      
        2732  2731  2731        2726              2731  2732PRN / # OF OBS      
        2731  2731                                          PRN / # OF OBS      
   E08  2928              2928  2927  2927  2914  2928      PRN / # OF OBS      
              2928  2927  2927  2914  2928              2928PRN / # OF OBS      
        2927  2927  2914        2928              2928  2927PRN / # OF OBS      
        2927  2914                                          PRN / # OF OBS      
   E09  1532              1532  1532  1532  1532  1532      PRN / # OF OBS      
              1532  1532  1532  1532  1532              1532PRN / # OF OBS      
        1532  1532  1532        1532              1532  1532PRN / # OF OBS      
        1532  1532                                          PRN / # OF OBS      
   E10  2074              2074  2074  2074  2074  2074      PRN / # OF OBS      
              2074  2074  2074  2074  2074              2074PRN / # OF OBS      
        2074  2074  2074        2074              2074  2074PRN / # OF OBS      
        2074  2074                                          PRN / # OF OBS      
   E11  1968              1967  1967  1967  1967  1968      PRN / # OF OBS      
              1967  1967  1967  1967  1968              1967PRN / # OF OBS      
        1967  1967  1967        1968              1967  1967PRN / # OF OBS      
        1967  1967                                          PRN / # OF OBS      
   E12  2041              2041  2041  2041  2041  2041      PRN / # OF OBS      
              2041  2041  2041  2041  2041              2041PRN / # OF OBS      
        2041  2041  2041        2041              2041  2041PRN / # OF OBS      
        2041  2041                                          PRN / # OF OBS      
   E13  2406              2406  2406  2410  2414  2406      PRN / # OF OBS      
              2406  2406  2410  2414  2406              2406PRN / # OF OBS      
        2406  2410  2414        2406              2406  2406PRN / # OF OBS      
        2410  2414                                          PRN / # OF OBS      
   E14    89                89    89    89    89    89      PRN / # OF OBS      
                89    89    89    89    89                89PRN / # OF OBS      
          89    89    89          89                89    89PRN / # OF OBS      
          89    89                                          PRN / # OF OBS      
   E15  2331              2344  2339  2348  2360  2331      PRN / # OF OBS      
              2344  2339  2348  2360  2331              2344PRN / # OF OBS      
        2339  2348  2360        2331              2344  2339PRN / # OF OBS      
        2348  2360                                          PRN / # OF OBS      
   E18    10                10    10    10    10    10      PRN / # OF OBS      
                10    10    10    10    10                10PRN / # OF OBS      
          10    10    10          10                10    10PRN / # OF OBS      
          10    10                                          PRN / # OF OBS      
   E19  1455              1453  1453  1454  1469  1455      PRN / # OF OBS      
              1453  1453  1454  1469  1455              1453PRN / # OF OBS      
        1453  1454  1469        1455              1453  1453PRN / # OF OBS      
        1454  1469                                          PRN / # OF OBS      
   E21  1758              1760  1759  1760  1760  1758      PRN / # OF OBS      
              1760  1759  1760  1760  1758              1760PRN / # OF OBS      
        1759  1760  1760        1758              1760  1759PRN / # OF OBS      
        1760  1760                                          PRN / # OF OBS      
   E24  1834              1838  1837  1859  1871  1834      PRN / # OF OBS      
              1838  1837  1859  1871  1834              1838PRN / # OF OBS      
        1837  1859  1871        1834              1838  1837PRN / # OF OBS      
        1859  1871                                          PRN / # OF OBS      
   E25  2665              2661  2661  2660  2663  2665      PRN / # OF OBS      
              2661  2661  2660  2663  2665              2661PRN / # OF OBS      
        2661  2660  2663        2665              2661  2661PRN / # OF OBS      
        2660  2663                                          PRN / # OF OBS      
   E26  2092              2096  2095  2096  2096  2092      PRN / # OF OBS      
              2096  2095  2096  2096  2092              2096PRN / # OF OBS      
        2095  2096  2096        2092              2096  2095PRN / # OF OBS      
        2096  2096                                          PRN / # OF OBS      
   E27  2416              2415  2415  2415  2415  2416      PRN / # OF OBS      
              2415  2415  2415  2415  2416              2415PRN / # OF OBS      
        2415  2415  2415        2416              2415  2415PRN / # OF OBS      
        2415  2415                                          PRN / # OF OBS      
   E30  2881              2882  2882  2882  2882  2881      PRN / # OF OBS      
              2882  2882  2882  2882  2881              2882PRN / # OF OBS      
        2882  2882  2882        2881              2882  2882PRN / # OF OBS      
        2882  2882                                          PRN / # OF OBS      
   E31  1318              1320  1320  1325  1328  1318      PRN / # OF OBS      
              1320  1320  1325  1328  1318              1320PRN / # OF OBS      
        1320  1325  1328        1318              1320  1320PRN / # OF OBS      
        1325  1328                                          PRN / # OF OBS      
   E33  2097              2097  2097  2097  2097  2097      PRN / # OF OBS      
              2097  2097  2097  2097  2097              2097PRN / # OF OBS      
        2097  2097  2097        2097              2097  2097PRN / # OF OBS      
        2097  2097                                          PRN / # OF OBS      
   E34  1919              1932  1924  1932  1942  1919      PRN / # OF OBS      
              1932  1924  1932  1942  1919              1932PRN / # OF OBS      
        1924  1932  1942        1919              1932  1924PRN / # OF OBS      
        1932  1942                                          PRN / # OF OBS      
   E36  1699              1698  1698  1698  1698  1699      PRN / # OF OBS      
              1698  1698  1698  1698  1699              1698PRN / # OF OBS      
        1698  1698  1698        1699              1698  1698PRN / # OF OBS      
        1698  1698                                          PRN / # OF OBS      
   G01  2046  2044        2053                    2046  2043PRN / # OF OBS      
              2053                    2042  2040        2053PRN / # OF OBS      
                          2043  2046  2043        2053      PRN / # OF OBS      
                                                            PRN / # OF OBS      
   G02  2364                                      2364  2352PRN / # OF OBS      
                                      2360  2351            PRN / # OF OBS      
                          2352  2364  2352                  PRN / # OF OBS      
                                                            PRN / # OF OBS      
   G03  2030  2026        2036                    2030  2012PRN / # OF OBS      
              2036                    2021  2008        2036PRN / # OF OBS      
                          2012  2030  2012        2036      PRN / # OF OBS      
                                                            PRN / # OF OBS      
   G04  2164  2158        2167                    2164  2151PRN / # OF OBS      
              2167                    2158  2150        2167PRN / # OF OBS      
                          2151  2164  2151        2167      PRN / # OF OBS      
                                                            PRN / # OF OBS      
   G05  2255  2249                                2255  2254PRN / # OF OBS      
                                      2252  2252            PRN / # OF OBS      
                          2254  2255  2254                  PRN / # OF OBS      
                                                            PRN / # OF OBS      
   G06  2270  2268        2271                    2270  2269PRN / # OF OBS      
              2271                    2266  2265        2271PRN / # OF OBS      
                          2269  2270  2269        2271      PRN / # OF OBS      
                                                            PRN / # OF OBS      
   G07  2260  2254                                2260  2252PRN / # OF OBS      
                                      2255  2250            PRN / # OF OBS      
                          2252  2260  2252                  PRN / # OF OBS      
                                                            PRN / # OF OBS      
   G08  2150  2146        2153                    2150  2141PRN / # OF OBS      
              2153                    2148  2141        2153PRN / # OF OBS      
                          2141  2150  2141        2153      PRN / # OF OBS      
                                                            PRN / # OF OBS      
   G09  2081  2080        2082                    2081  2078PRN / # OF OBS      
              2082                    2081  2078        2082PRN / # OF OBS      
                          2078  2081  2078        2082      PRN / # OF OBS      
                                                            PRN / # OF OBS      
   G10  2290  2288        2289                    2290  2287PRN / # OF OBS      
              2289                    2286  2285        2289PRN / # OF OBS      
                          2287  2290  2287        2289      PRN / # OF OBS      
                                                            PRN / # OF OBS      
   G11  2298  2296        2301                    2298  2293PRN / # OF OBS      
              2301                    2294  2292        2301PRN / # OF OBS      
                          2293  2298  2293        2301      PRN / # OF OBS      
                                                            PRN / # OF OBS      
   G12  2034  2027                                2034  2030PRN / # OF OBS      
                                      2030  2027            PRN / # OF OBS      
                          2030  2034  2030                  PRN / # OF OBS      
                                                            PRN / # OF OBS      
   G13  2055                                      2055  2044PRN / # OF OBS      
                                      2054  2044            PRN / # OF OBS      
                          2044  2055  2044                  PRN / # OF OBS      
                                                            PRN / # OF OBS      
   G14  2303  2302        2303                    2303  2298PRN / # OF OBS      
              2303                    2302  2298        2303PRN / # OF OBS      
                          2298  2303  2298        2303      PRN / # OF OBS      
                                                            PRN / # OF OBS      
   G15  2119  2117                                2119  2118PRN / # OF OBS      
                                      2117  2117            PRN / # OF OBS      
                          2118  2119  2118                  PRN / # OF OBS      
                                                            PRN / # OF OBS      
   G16  2169                                      2169  2164PRN / # OF OBS      
                                      2168  2164            PRN / # OF OBS      
                          2164  2169  2164                  PRN / # OF OBS      
                                                            PRN / # OF OBS      
   G17  2358  2352                                2358  2358PRN / # OF OBS      
                                      2357  2357            PRN / # OF OBS      
                          2358  2358  2358                  PRN / # OF OBS      
                                                            PRN / # OF OBS      
   G18  2232  2230        2234                    2232  2226PRN / # OF OBS      
              2234                    2230  2226        2234PRN / # OF OBS      
                          2226  2232  2226        2234      PRN / # OF OBS      
                                                            PRN / # OF OBS      
   G19  2285                                      2285  2281PRN / # OF OBS      
                                      2284  2280            PRN / # OF OBS      
                          2281  2285  2281                  PRN / # OF OBS      
                                                            PRN / # OF OBS      
   G20  2215                                      2215  2209PRN / # OF OBS      
                                      2212  2207            PRN / # OF OBS      
                          2209  2215  2209                  PRN / # OF OBS      
                                                            PRN / # OF OBS      
   G21  2034                                      2034  2017PRN / # OF OBS      
                                      2031  2016            PRN / # OF OBS      
                          2017  2034  2017                  PRN / # OF OBS      
                                                            PRN / # OF OBS      
   G22  2342                                      2342  2329PRN / # OF OBS      
                                      2338  2325            PRN / # OF OBS      
                          2329  2342  2329                  PRN / # OF OBS      
                                                            PRN / # OF OBS      
   G23  2310  2309        2311                    2310  2307PRN / # OF OBS      
              2311                    2307  2306        2311PRN / # OF OBS      
                          2307  2310  2307        2311      PRN / # OF OBS      
                                                            PRN / # OF OBS      
   G24  1899  1893        1906                    1899  1881PRN / # OF OBS      
              1906                    1889  1876        1906PRN / # OF OBS      
                          1881  1899  1881        1906      PRN / # OF OBS      
                                                            PRN / # OF OBS      
   G25  1923  1917        1931                    1923  1911PRN / # OF OBS      
              1931                    1920  1910        1931PRN / # OF OBS      
                          1911  1923  1911        1931      PRN / # OF OBS      
                                                            PRN / # OF OBS      
   G26  2122  2120        2122                    2122  2113PRN / # OF OBS      
              2122                    2120  2111        2122PRN / # OF OBS      
                          2113  2122  2113        2122      PRN / # OF OBS      
                                                            PRN / # OF OBS      
   G27  2057  2051        2058                    2057  2033PRN / # OF OBS      
              2058                    2051  2031        2058PRN / # OF OBS      
                          2033  2057  2033        2058      PRN / # OF OBS      
                                                            PRN / # OF OBS      
   G28  2309                                      2309  2291PRN / # OF OBS      
                                      2303  2289            PRN / # OF OBS      
                          2291  2309  2291                  PRN / # OF OBS      
                                                            PRN / # OF OBS      
   G29  2142  2135                                2142  2139PRN / # OF OBS      
                                      2138  2136            PRN / # OF OBS      
                          2139  2142  2139                  PRN / # OF OBS      
                                                            PRN / # OF OBS      
   G30  2152  2149        2153                    2152  2149PRN / # OF OBS      
              2153                    2148  2147        2153PRN / # OF OBS      
                          2149  2152  2149        2153      PRN / # OF OBS      
                                                            PRN / # OF OBS      
   G31  2260  2251                                2260  2258PRN / # OF OBS      
                                      2258  2257            PRN / # OF OBS      
                          2258  2260  2258                  PRN / # OF OBS      
                                                            PRN / # OF OBS      
   G32  2319  2315        2317                    2319  2314PRN / # OF OBS      
              2317                    2315  2311        2317PRN / # OF OBS      
                          2314  2319  2314        2317      PRN / # OF OBS      
                                                            PRN / # OF OBS      
   R01  2535  2529                                2535  2530PRN / # OF OBS      
                                      2535  2525            PRN / # OF OBS      
                          2530  2535  2530                  PRN / # OF OBS      
                                                            PRN / # OF OBS      
   R02  2543  2543                                2543  2543PRN / # OF OBS      
                                      2543  2542            PRN / # OF OBS      
                          2543  2543  2543                  PRN / # OF OBS      
                                                            PRN / # OF OBS      
   R03  2219  2214                                2219  2216PRN / # OF OBS      
                                      2219  2213            PRN / # OF OBS      
                          2216  2219  2216                  PRN / # OF OBS      
                                                            PRN / # OF OBS      
   R04  2079  2078                                2079  2078PRN / # OF OBS      
                                      2079  2077            PRN / # OF OBS      
                          2078  2079  2078                  PRN / # OF OBS      
                                                            PRN / # OF OBS      
   R05  2053  2051  2049                          2053  2052PRN / # OF OBS      
        2049                          2053  2048  2049      PRN / # OF OBS      
                          2052  2053  2052  2049            PRN / # OF OBS      
                                                            PRN / # OF OBS      
   R06  1951                                      1951      PRN / # OF OBS      
                                      1943                  PRN / # OF OBS      
                                1951                        PRN / # OF OBS      
                                                            PRN / # OF OBS      
   R07  2126  2120                                2126  2121PRN / # OF OBS      
                                      2126  2119            PRN / # OF OBS      
                          2121  2126  2121                  PRN / # OF OBS      
                                                            PRN / # OF OBS      
   R08  2554  2553                                2554  2550PRN / # OF OBS      
                                      2553  2545            PRN / # OF OBS      
                          2550  2554  2550                  PRN / # OF OBS      
                                                            PRN / # OF OBS      
   R09  2202  2199                                2202  2200PRN / # OF OBS      
                                      2201  2196            PRN / # OF OBS      
                          2200  2202  2200                  PRN / # OF OBS      
                                                            PRN / # OF OBS      
   R10  2522                                      2522      PRN / # OF OBS      
                                      2522                  PRN / # OF OBS      
                                2522                        PRN / # OF OBS      
                                                            PRN / # OF OBS      
   R11  2537  2537  2534                          2537  2535PRN / # OF OBS      
        2534                          2536  2532  2534      PRN / # OF OBS      
                          2535  2537  2535  2534            PRN / # OF OBS      
                                                            PRN / # OF OBS      
   R12  2545  2541                                2545  2542PRN / # OF OBS      
                                      2545  2542            PRN / # OF OBS      
                          2542  2545  2542                  PRN / # OF OBS      
                                                            PRN / # OF OBS      
   R13  1920  1908                                1920  1917PRN / # OF OBS      
                                      1918  1910            PRN / # OF OBS      
                          1917  1920  1917                  PRN / # OF OBS      
                                                            PRN / # OF OBS      
   R14  2043  2042                                2043  2042PRN / # OF OBS      
                                      2042  2040            PRN / # OF OBS      
                          2042  2043  2042                  PRN / # OF OBS      
                                                            PRN / # OF OBS      
   R15  2059  2056                                2059  2056PRN / # OF OBS      
                                      2059  2055            PRN / # OF OBS      
                          2056  2059  2056                  PRN / # OF OBS      
                                                            PRN / # OF OBS      
   R17  2232  2225                                2232  2228PRN / # OF OBS      
                                      2231  2226            PRN / # OF OBS      
                          2228  2232  2228                  PRN / # OF OBS      
                                                            PRN / # OF OBS      
   R18  2408  2402                                2408  2401PRN / # OF OBS      
                                      2406  2400            PRN / # OF OBS      
                          2401  2408  2401                  PRN / # OF OBS      
                                                            PRN / # OF OBS      
   R19  2329  2323                                2329  2322PRN / # OF OBS      
                                      2327  2316            PRN / # OF OBS      
                          2322  2329  2322                  PRN / # OF OBS      
                                                            PRN / # OF OBS      
   R20  2130  2130                                2130  2130PRN / # OF OBS      
                                      2127  2126            PRN / # OF OBS      
                          2130  2130  2130                  PRN / # OF OBS      
                                                            PRN / # OF OBS      
   R21  2217  2215  2211                          2217  2214PRN / # OF OBS      
        2211                          2216  2211  2211      PRN / # OF OBS      
                          2214  2217  2214  2211            PRN / # OF OBS      
                                                            PRN / # OF OBS      
   R23  2221                                      2221      PRN / # OF OBS      
                                      2220                  PRN / # OF OBS      
                                2221                        PRN / # OF OBS      
                                                            PRN / # OF OBS      
   R24  2215  2215                                2215  2215PRN / # OF OBS      
                                      2214  2212            PRN / # OF OBS      
                          2215  2215  2215                  PRN / # OF OBS      
                                                            PRN / # OF OBS      
    15.000                                                  INTERVAL            
  2022     6    20     0     0    0.0000000     GPS         TIME OF FIRST OBS   
  2022     6    20    23    59   45.0000000     GPS         TIME OF LAST OBS    
                                                            END OF HEADER      
 22 06 20 00 00 00.0000000  0 49C05C07C10C19C20C21C22C28C36C37C40C43
                                C45C46C56C58E01E04E05E09E13E15E24E31
                                E34G05G07G08G13G14G15G17G18G20G23G24
                                G28G30R01R02R07R08R09R10R11R12R17R18
                                R19
                  40367719.988                                    40367720.419  
  40367718.546                                          11.909                  
                         9.607           9.192                                  
 210205312.42106                                 170809073.68806 162544130.79006
                                                        41.050                  
                        37.700          40.250                  
                  39181855.310                                    39181851.006  
  39181851.646                                        -310.322                  
                      -252.146        -239.956                                  
 204030258.34707                                 165791299.90907 157769153.85107
                                                        43.500                  
                        42.300          44.700                  
                  38619091.668                                    38619088.825  
  38619089.707                                         103.528                  
                        83.940          79.904                                  
 201099801.72507                                 163410080.62607 155503159.84807
                                                        45.400                  
                        42.950          44.850                  
                  22703880.509                    22703881.265    22703877.668  
                                                     -2253.958                  
     -1698.617       -1831.538                                                  
 118225152.17908                  89095025.67608  96067642.25108                
                                                        52.100                  
        53.650          50.650                                  
                  26799027.917                    26799029.156    26799023.747  
                                                     -3492.871                  
     -2632.376       -2838.462                                                  
 139549625.54107                 105165230.80207 113395512.93306                
                                                        45.900                  
        44.550          38.100                                  
                  25928039.806                    25928041.716    25928036.908  
                                                      3134.254                  
      2361.933        2546.749                                                  
 135014116.87207                 101747219.50007 109710023.71907                
                                                        43.750                  
        46.800          42.700                                  
                  22524559.633                    22524557.680    22524554.730  
                                                       955.799                  
       720.246         776.597                                                  
 117291373.67308                  88391303.62409  95308857.85508                
                                                        51.850                  
        54.700          51.650                                  
                  26799958.426                    26799961.592    26799960.606  
                                                      1723.007                  
      1298.347        1400.152                                                  
 139554406.47907                 105168807.58406 113399398.80806                
                                                        42.100                  
        41.250          39.650                                  
                  22628360.845                    22628369.824    22628366.846  
                                                      1814.604                  
      1367.418        1474.424                                                  
 117831915.71408                  88798703.27009  95748116.03008                
                                                        51.900                  
        54.850          50.850                                  
                  26371078.793                    26371086.337    26371083.989  
                                                     -3161.969                  
     -2382.942       -2569.287                                                  
 137321236.27707                 103485962.88607 111584817.84606                
                                                        43.900                  
        44.700          40.850                                  
                  39090907.195                    39090908.399    39090906.585  
                                                      -599.403                  
      -451.795        -487.220                                                  
 203556665.12707                 153401194.45607 165406489.30707                
                                                        47.300                  
        46.800          43.200                                  
                  27150693.300                    27150698.813    27150696.031  
                                                      -696.706                  
      -525.041        -566.078                                                  
 141380787.44607                 106545177.99207 114883466.96906                
                                                        42.950                  
        42.200          38.350                                  
                  26191239.696                    26191251.749    26191249.899  
                                                      3298.720                  
      2486.003        2680.597                                                  
 136384683.16306                 102780121.00207 110823772.08206                
                                                        41.550                  
        43.050          40.800                                  
                  22153135.728                    22153141.791    22153142.533  
                                                     -1202.194                  
      -905.949        -976.848                                                  
 115357302.74508                  86933848.20209  93737341.41708                
                                                        51.850                  
        55.300          51.650                                  
                  38356727.187                                    38356730.715  
                                                      -432.625                  
                      -351.599                                                  
 199733618.76007                                 162299967.87207                
                                                        46.200                  
                        43.000                                  
                  34826318.478                                                  
                                                       601.640                  
                                                                                
 181349774.76006                                                                
                                                        41.800                  
                                                                
  26419164.586                                    26419168.597    26419165.769  
  26419166.780    26419167.187       -2368.414                                  
     -1768.572       -1922.406       -1814.742       -1791.666   138833701.49948
                                 103674561.88708 112689716.96207 106379108.79708
 105026833.86808                        49.750                                  
        48.350          46.850          48.050          51.200  
  27150701.750                                    27150705.795    27150703.032  
  27150704.194    27150704.695       -2694.539                                  
     -2012.176       -2187.118       -2064.588       -2038.396   142677988.18548
                                 106545319.12607 115810097.11407 109324727.12707
 107935032.15108                        49.050                                  
        46.200          45.400          46.100          49.150  
  24487034.788                                    24487038.480    24487033.273  
  24487036.758    24487037.147        1760.402                                  
      1314.596        1428.917        1348.903        1331.744   128680305.42748
                                  96092489.78108 104448319.85708  98599237.95208
  97345862.89209                        52.350                                  
        53.250          52.250          52.950          56.150  
  23619887.710                                    23619890.089    23619886.974  
  23619888.910    23619889.045        -840.635                                  
      -627.821        -682.399        -644.153        -635.988   124123463.73848
                                  92689680.17509 100749608.00808  95107650.68209
  93898664.95209                        53.850                                  
        54.350          53.450          54.550          57.400  
  28646753.408                                    28646759.490    28646756.609  
  28646757.047    28646757.634        1638.284                                  
      1223.185        1329.897        1255.435        1239.362   150539709.58646
                                 112416044.81906 122191335.86706 115348617.99206
 113882315.92806                        40.400                                  
        38.450          38.400          36.750          40.700  
  27517660.323                                    27517667.475    27517661.764  
  27517665.494    27517666.090        -640.271                                  
      -478.127        -519.870        -490.606        -484.336   144606277.59947
                                 107985238.72407 117375231.05607 110802238.85907
 109393734.81607                        45.400                                  
        45.150          42.950          44.700          47.900  
  25601159.523                                    25601162.388    25601159.967  
  25601160.713    25601161.205        2754.612                                  
      2057.053        2235.939        2110.718        2083.928   134535059.39748
                                 100464533.84108 109200562.16408 103085337.80408
 101774935.84508                        52.000                                  
        50.250          49.850          50.250          53.200  
  23900383.535                                    23900387.209    23900381.847  
  23900385.739    23900386.069         401.179                                  
       299.600         325.614         307.378         303.488   125597450.84648
                                  93790368.05908 101946015.58608  96237059.28008
  95013716.19509                        53.100                                  
        53.950          52.900          53.750          56.850  
  28390578.330                                    28390585.932    28390580.863  
